name,district,lat,lng,tag
上海石化工业学校,金山区,30.727055,121.333498,教育培训;中学
蒙山中学,金山区,30.733423,121.356502,教育培训;中学
上海师范大学第二附属中学,金山区,30.72627,121.358092,教育培训;中学
上海市同凯中学,金山区,30.741118,121.36846,教育培训;中学
华东师大第三附属中学,金山区,30.728552,121.342407,教育培训;中学
上海市山阳中学,金山区,30.77427,121.372861,教育培训;中学
上海市金山初级中学,金山区,30.76061,121.348161,教育培训;中学
上海市存志实验中学,金山区,30.726242,121.351327,教育培训;中学
上海石化工业学校(南校区),金山区,30.723933,121.333326,教育培训;中学
金山区教师进修学院附属中学,金山区,30.723096,121.344459,教育培训;中学
永昌中学(金山校区),金山区,30.779519,121.362629,教育培训;中学
上海市石化第四中学,金山区,30.722438,121.345252,教育培训;中学
上海蒙山中学南校,金山区,30.720831,121.3537,教育培训;中学
上海市平乐中学,金山区,30.720881,121.354254,教育培训;中学
苏州农业职业技术学院张堰办学点,金山区,30.809438,121.293456,教育培训;中学
上海市蒙山中学教学点,金山区,30.773412,121.381847,教育培训;中学
兴塔中学,金山区,30.876976,121.080934,教育培训;中学
金山中学,金山区,30.887442,121.167464,教育培训;中学
上海交大南洋中学,金山区,30.897614,121.251673,教育培训;中学
上海市罗星中学,金山区,30.90445,121.17659,教育培训;中学
朱泾中学,金山区,30.906481,121.168243,教育培训;中学
干巷中学,金山区,30.832321,121.246439,教育培训;中学
西林中学,金山区,30.897734,121.166249,教育培训;中学
吕巷中学,金山区,30.830654,121.18362,教育培训;中学
上海市松隐中学,金山区,30.89896,121.243255,教育培训;中学
上海健康医学院附属卫生学校(金山分校),金山区,30.895696,121.172009,教育培训;中学
上海交通大学医学院附属卫校(金山分校),金山区,30.895847,121.17234,教育培训;中学
上海市罗星中学-西区,金山区,30.904592,121.175278,教育培训;中学
美国高中,金山区,30.896804,121.251323,教育培训;中学
罗星中学-东区,金山区,30.904434,121.176579,教育培训;中学
张堰中学,金山区,30.810626,121.29192,教育培训;中学
上海市亭林中学,金山区,30.886438,121.322784,教育培训;中学
朱行中学,金山区,30.850889,121.339396,教育培训;中学
亭新中学,金山区,30.888498,121.325321,教育培训;中学
上海市张堰第二中学,金山区,30.814153,121.292235,教育培训;中学
亭林中学(招呼站),金山区,30.884679,121.323861,教育培训;中学
新华中学(招呼站),奉贤区,30.901926,121.384361,教育培训;中学
亭林中学(招呼站),金山区,30.885404,121.324906,教育培训;中学
奉贤区实验中学(贝港校区),奉贤区,30.915522,121.452338,教育培训;中学
上海市奉贤区致远高级中学,奉贤区,30.91384,121.46567,教育培训;中学
奉贤区育秀实验学校,奉贤区,30.912516,121.47291,教育培训;中学
阳光外国语学校,奉贤区,30.908885,121.451817,教育培训;中学
上海市胡桥学校,奉贤区,30.839261,121.437574,教育培训;中学
光明中学,奉贤区,30.910614,121.514308,教育培训;中学
柘林中学(招呼站),奉贤区,30.834917,121.485451,教育培训;中学
上海交通大学昂立教育集团华侨生中学部,奉贤区,30.907282,121.510289,教育培训;中学
上海中特学校,奉贤区,30.840977,121.434026,教育培训;中学
上海师大第四附中,奉贤区,30.843915,121.532067,教育培训;中学
塘外中学,奉贤区,30.907711,121.626009,教育培训;中学
奉贤区奉城第二中学,奉贤区,30.91906,121.646304,教育培训;中学
奉城高级中学(招呼站),奉贤区,30.917696,121.657311,教育培训;中学
上海市泥城中学,浦东新区,30.910781,121.836293,教育培训;中学
朝阳义塾,浦东新区,30.864996,121.802466,教育培训;中学
奉贤区邵厂学校,奉贤区,30.91071,121.768385,教育培训;中学
彭镇学校中学部,浦东新区,30.908297,121.80039,教育培训;中学
第一十年,浦东新区,30.911995,121.822141,教育培训;中学
上海中学东校,浦东新区,30.913582,121.927534,教育培训;中学
上海市临港实验中学,浦东新区,30.910615,121.911809,教育培训;中学
五厍学校,松江区,30.94375,121.14429,教育培训;中学
新浜中学,松江区,30.943394,121.065638,教育培训;中学
松江区大港学校,松江区,31.010055,121.152313,教育培训;中学
新浜中学(招呼站),松江区,30.941899,121.067096,教育培训;中学
上海市城市科技学校,松江区,31.028273,121.22859,教育培训;中学
松江一中,松江区,31.008903,121.240521,教育培训;中学
上海市松江二中,松江区,31.014221,121.252247,教育培训;中学
松江区李塔汇学校,松江区,30.972367,121.18684,教育培训;中学
九峰实验学校(方塔北路),松江区,31.016302,121.253895,教育培训;中学
上海师范大学附属外国语中学,松江区,31.015308,121.219275,教育培训;中学
上海对外经贸大学附属实验学校,松江区,31.019266,121.191358,教育培训;中学
上海市松江区第六中学,松江区,31.017342,121.235992,教育培训;中学
立达中学,松江区,31.01045,121.2199,教育培训;中学
松江第七中学,松江区,31.021674,121.240769,教育培训;中学
上海有色金属工业技校九凌分校,松江区,30.974698,121.207706,教育培训;中学
松江区中山永丰实验学校,松江区,31.012793,121.22156,教育培训;中学
上海市松江区二中(集团)初级中学分校,松江区,31.026244,121.252397,教育培训;中学
上海市电视中专松江分校,松江区,31.015783,121.228141,教育培训;中学
松江区六安长福学校,松江区,30.985471,121.276517,教育培训;中学
松江区石湖荡松塔中学,松江区,30.974429,121.187319,教育培训;中学
松江区职工业余中学,松江区,31.018744,121.228228,教育培训;中学
松江二中教育集团,松江区,31.012965,121.251072,教育培训;中学
富杰初中,闵行区,31.028243,121.377657,教育培训;中学
松江区华阳桥学校-南区,松江区,31.009208,121.289566,教育培训;中学
松江区叶榭育外中学,松江区,30.95559,121.335034,教育培训;中学
闵行四中西校(附小),闵行区,31.003093,121.38059,教育培训;中学
闵行中学,闵行区,31.013847,121.431856,教育培训;中学
奉贤中学,奉贤区,30.927885,121.503646,教育培训;中学
文绮中学,闵行区,31.012684,121.430517,教育培训;中学
格致中学(奉贤校区),奉贤区,30.959201,121.480068,教育培训;中学
上海市闵行第三中学,闵行区,31.006584,121.425843,教育培训;中学
欧米奇西点西餐学院,奉贤区,30.920175,121.448844,教育培训;中学
古华中学,奉贤区,30.920192,121.473237,教育培训;中学
上海市西南工程学校(碧江路),闵行区,31.016276,121.40883,教育培训;中学
奉贤中专,奉贤区,30.943854,121.46515,教育培训;中学
第四中学,闵行区,31.018976,121.411002,教育培训;中学
卡迪夫公学(上海)校区,奉贤区,30.941799,121.463377,教育培训;中学
金水苑中学,奉贤区,30.96342,121.497863,教育培训;中学
汇贤中学,奉贤区,30.929199,121.473959,教育培训;中学
上海交大附属第二中学,闵行区,31.017417,121.433445,教育培训;中学
上海市闵行第二中学,闵行区,31.00895,121.416782,教育培训;中学
上海民办铭远双语高级中学,奉贤区,30.975862,121.483337,教育培训;中学
奉贤区实验中学(崇实校区),奉贤区,30.93266,121.492056,教育培训;中学
邬桥学校,奉贤区,30.962053,121.409526,教育培训;中学
肖塘中学,奉贤区,30.96776,121.444835,教育培训;中学
闵行区鹤北初级中学,闵行区,31.014406,121.41492,教育培训;中学
上海市闵行第五中学,闵行区,31.013328,121.425151,教育培训;中学
上海市南洋高级进修学院,闵行区,31.017643,121.441488,教育培训;中学
奉贤区实验中学崇实校区-崇实初中,奉贤区,30.931998,121.492259,教育培训;中学
邬桥学校(北校区),奉贤区,30.966465,121.405384,教育培训;中学
奉教院附中,奉贤区,30.924024,121.462693,教育培训;中学
上海奉贤区农业技术学校,奉贤区,30.921587,121.461823,教育培训;中学
齐贤学校-中学部,奉贤区,30.959973,121.514785,教育培训;中学
汽轮机厂技校,闵行区,31.0044,121.428629,教育培训;中学
闵行区成人中专,闵行区,31.015254,121.425887,教育培训;中学
上海市闵行中学-闵行汇点高中,闵行区,31.012503,121.430255,教育培训;中学
闵行第三中学中学生昆曲社,闵行区,31.006304,121.426557,教育培训;中学
闵行区第二职工业余中学,闵行区,31.018179,121.405369,教育培训;中学
浦江三中,闵行区,31.024628,121.539037,教育培训;中学
上海市奉贤区青溪中学,奉贤区,30.930521,121.524757,教育培训;中学
尚同中学,奉贤区,30.958041,121.523872,教育培训;中学
青村中学,奉贤区,30.927257,121.590537,教育培训;中学
泰日学校-中学部,奉贤区,30.991234,121.570141,教育培训;中学
上海市奉贤区青村技工学校,奉贤区,30.929569,121.586764,教育培训;中学
新场中学,浦东新区,31.027885,121.65605,教育培训;中学
上海市大团高级中学,浦东新区,30.967648,121.756714,教育培训;中学
奉贤区曙光中学,奉贤区,30.928661,121.66613,教育培训;中学
头桥中学,奉贤区,30.964704,121.650328,教育培训;中学
奉贤区景秀高级中学,奉贤区,30.955555,121.733534,教育培训;中学
宣桥学校,浦东新区,31.02198,121.708993,教育培训;中学
四团中学,奉贤区,30.946805,121.728501,教育培训;中学
奉贤区洪庙中学,奉贤区,30.931997,121.69033,教育培训;中学
四团成人中等文化技校,奉贤区,30.942605,121.734958,教育培训;中学
奉贤区奉城二中分部,奉贤区,30.921562,121.667181,教育培训;中学
上海奉贤金沪学校,奉贤区,30.981796,121.670047,教育培训;中学
上海市新港中学,浦东新区,30.989427,121.876396,教育培训;中学
东海书院,浦东新区,30.959565,121.904924,教育培训;中学
金泽中学,青浦区,31.039488,120.931971,教育培训;中学
商榻中学,青浦区,31.128577,120.932924,教育培训;中学
青浦区东湖中学,青浦区,31.112541,121.055681,教育培训;中学
朱家角中学,青浦区,31.108252,121.048894,教育培训;中学
沈巷中学,青浦区,31.080142,121.068606,教育培训;中学
青浦区初等职业技术学校,青浦区,31.111531,121.060735,教育培训;中学
青浦区珠溪中学,青浦区,31.108725,121.059222,教育培训;中学
朱家角高中新疆部,青浦区,31.109961,121.049403,教育培训;中学
包玉刚实验学校,松江区,31.043687,121.198479,教育培训;中学
华东师范大学松江实验高级中学,松江区,31.037295,121.220122,教育培训;中学
茸一中学,松江区,31.038408,121.251047,教育培训;中学
松江同舟职业学校,松江区,31.038793,121.260176,教育培训;中学
华东师大松江实验中学,松江区,31.040378,121.243753,教育培训;中学
华实初中,松江区,31.041105,121.244049,教育培训;中学
上海市松江四中,松江区,31.117099,121.250707,教育培训;中学
上海瑞大学校,青浦区,31.118847,121.16009,教育培训;中学
洞泾镇成人中等文化技术学校,松江区,31.086047,121.273309,教育培训;中学
松江区洞泾镇同诚中学,松江区,31.085675,121.274151,教育培训;中学
上海外国语大学西外附中,松江区,31.050593,121.240303,教育培训;中学
上海松江区求真专修学校,松江区,31.030886,121.207075,教育培训;中学
广丰诚信学校,松江区,31.088513,121.268118,教育培训;中学
上海市群益职业技术学校,闵行区,31.051896,121.392264,教育培训;中学
莘松中学,闵行区,31.115204,121.374706,教育培训;中学
上海闵行区教育学院附属中学,闵行区,31.123078,121.370687,教育培训;中学
松江四中,松江区,31.119446,121.28504,教育培训;中学
上海市新桥职校,松江区,31.067768,121.327111,教育培训;中学
上海马桥强恕中学,闵行区,31.036239,121.372548,教育培训;中学
上海大学附属外国语中学,松江区,31.136133,121.348098,教育培训;中学
马桥复旦万科实验中学,闵行区,31.032529,121.389213,教育培训;中学
新桥中学,松江区,31.065653,121.325246,教育培训;中学
松江区九亭第二中学,松江区,31.121924,121.35187,教育培训;中学
启德学校,闵行区,31.115825,121.370196,教育培训;中学
上海师资培训中心实验基地附属中学,闵行区,31.106677,121.375019,教育培训;中学
福阳楼九中,松江区,31.121382,121.326634,教育培训;中学
新虹职业技术学校,松江区,31.06812,121.327691,教育培训;中学
上海松江区求真专修学校(新桥点),松江区,31.069514,121.31624,教育培训;中学
松江区九亭中学分校,松江区,31.117251,121.318631,教育培训;中学
上海体育职业学院附属中学,闵行区,31.121655,121.378763,教育培训;中学
松江区九亭第二中学-明义楼,松江区,31.121074,121.35174,教育培训;中学
上海新天地中学,松江区,31.068094,121.327648,教育培训;中学
报春中学,闵行区,31.127576,121.383138,教育培训;中学
松江区泗泾镇四海中学,松江区,31.10115,121.313113,教育培训;中学
松江区新桥震新中学,松江区,31.069442,121.324381,教育培训;中学
上海市材料工程学校,徐汇区,31.137122,121.453485,教育培训;中学
华育中学,徐汇区,31.123042,121.460367,教育培训;中学
位育中学,徐汇区,31.126463,121.449483,教育培训;中学
上海市西南工程学校(梅陇西路),闵行区,31.125538,121.400913,教育培训;中学
华东理工大学附属中学,徐汇区,31.138082,121.431012,教育培训;中学
上海师范大学附属中学,浦东新区,31.130566,121.500498,教育培训;中学
上海市建筑工程学校,闵行区,31.067728,121.468172,教育培训;中学
上海师范大学附属中学(闵行分校),闵行区,31.074029,121.515543,教育培训;中学
向明中学(浦江校区),闵行区,31.079589,121.507112,教育培训;中学
上海市田园高级中学,闵行区,31.096839,121.407827,教育培训;中学
上海市长桥中学,徐汇区,31.136858,121.445309,教育培训;中学
华东师大第二附属中学附属初中,闵行区,31.037343,121.468874,教育培训;中学
莘松中学(春申校区),闵行区,31.112256,121.411345,教育培训;中学
闵行区梅陇中学,闵行区,31.138288,121.416207,教育培训;中学
颛桥中学,闵行区,31.076332,121.409855,教育培训;中学
上海市吴泾中学,闵行区,31.05174,121.472644,教育培训;中学
浦江第一中学,闵行区,31.079781,121.504963,教育培训;中学
上海市罗阳中学,闵行区,31.127589,121.419371,教育培训;中学
上海市紫阳中学,徐汇区,31.118999,121.461152,教育培训;中学
上海市闵行区北桥中学,闵行区,31.037318,121.42241,教育培训;中学
上海市第二中学(梅陇校区),闵行区,31.107172,121.423,教育培训;中学
上海市闵行区曹行中学,闵行区,31.097756,121.439891,教育培训;中学
友爱实验中学,闵行区,31.044644,121.460254,教育培训;中学
星河湾中学,闵行区,31.100068,121.416722,教育培训;中学
上海市育人中学(懿德校区),浦东新区,31.129356,121.519451,教育培训;中学
上海市洋泾中学南校,浦东新区,31.129431,121.506028,教育培训;中学
上海电力工业学校(吴泾校区),闵行区,31.069253,121.471226,教育培训;中学
上海华谊成人中等专业学校,闵行区,31.070481,121.466158,教育培训;中学
上海市第二轻工业学校(西区),闵行区,31.070945,121.466048,教育培训;中学
上海市燎原中等专业学校,闵行区,31.037688,121.421823,教育培训;中学
华东理工大学附属中学-高中毕业班,徐汇区,31.137209,121.429762,教育培训;中学
华东电力技工学校,闵行区,31.068863,121.47124,教育培训;中学
周浦中学,浦东新区,31.112097,121.581059,教育培训;中学
傅雷中学,浦东新区,31.127885,121.596626,教育培训;中学
上海市吴迅中学,浦东新区,31.123893,121.569528,教育培训;中学
上海市浦江高级中学,闵行区,31.064209,121.551288,教育培训;中学
上海市闵行区浦江第二中学,闵行区,31.063659,121.539556,教育培训;中学
上海市澧溪中学,浦东新区,31.116097,121.584867,教育培训;中学
下沙中学,浦东新区,31.054296,121.593432,教育培训;中学
上海市吴迅中学(高中部),浦东新区,31.094337,121.602322,教育培训;中学
梅林学校,浦东新区,31.093352,121.566669,教育培训;中学
进才中学南校,浦东新区,31.074837,121.601682,教育培训;中学
闵行区浦航第二中学,闵行区,31.048898,121.543705,教育培训;中学
上海市下沙学校中学部,浦东新区,31.088724,121.602315,教育培训;中学
上海交通大学医学院附属卫生学校,浦东新区,31.110976,121.617172,教育培训;中学
上海市澧溪中学分校,浦东新区,31.103769,121.609251,教育培训;中学
上海市沣溪中学分校,浦东新区,31.103699,121.60857,教育培训;中学
上海青少年打击乐团第六团,浦东新区,31.121604,121.585833,教育培训;中学
上海市南汇第二中学,浦东新区,31.062135,121.746491,教育培训;中学
上海市南汇第五中学,浦东新区,31.07291,121.747016,教育培训;中学
周浦镇育才学校,浦东新区,31.115924,121.666037,教育培训;中学
一步九成,浦东新区,31.030911,121.653007,教育培训;中学
上海南汇中学,浦东新区,31.062852,121.794627,教育培训;中学
上海师大附属第二外国语学校,浦东新区,31.057802,121.787753,教育培训;中学
上海市南汇第一中学,浦东新区,31.050286,121.765322,教育培训;中学
上海市老港中学,浦东新区,31.032981,121.850941,教育培训;中学
上海工商外国语学院-附属中学,浦东新区,31.052048,121.787132,教育培训;中学
南汇第四中学,浦东新区,31.050255,121.768274,教育培训;中学
上海市祝桥高级中学,浦东新区,31.120123,121.762507,教育培训;中学
进才中学东校,浦东新区,31.130531,121.760464,教育培训;中学
上海市南汇业余中学,浦东新区,31.05498,121.762765,教育培训;中学
浦东新区卫生学校,浦东新区,31.059023,121.76056,教育培训;中学
上海市浦东教育发展研究院附属中学,浦东新区,31.085611,121.767774,教育培训;中学
复旦大学附属中学(青浦分校),青浦区,31.149397,121.085132,教育培训;中学
上海工商信息学校,青浦区,31.156147,121.137735,教育培训;中学
上海市青浦高级中学,青浦区,31.160933,121.148049,教育培训;中学
青浦区实验中学,青浦区,31.157046,121.101745,教育培训;中学
东方中学,青浦区,31.149402,121.128701,教育培训;中学
上海市青浦区第一中学,青浦区,31.156086,121.124724,教育培训;中学
上海市青浦区尚美中学,青浦区,31.165713,121.115512,教育培训;中学
上海市青浦区第二中学,青浦区,31.148607,121.117226,教育培训;中学
上海市毓华学校,青浦区,31.142103,121.12672,教育培训;中学
上海市青浦区崧淀中学,青浦区,31.149823,121.15995,教育培训;中学
青浦区实验中学(东校区),青浦区,31.144614,121.142459,教育培训;中学
上海新闻出版职业技术学校(向阳河路),青浦区,31.198168,121.141527,教育培训;中学
青浦区农业技术学校,青浦区,31.141319,121.118203,教育培训;中学
凤溪中学,青浦区,31.207785,121.237682,教育培训;中学
重固中学,青浦区,31.205121,121.184348,教育培训;中学
青浦区华新中学,青浦区,31.239176,121.241481,教育培训;中学
上海华新中专场,青浦区,31.234135,121.21165,教育培训;中学
青浦区凤溪中学分部,青浦区,31.201884,121.236071,教育培训;中学
上海进学计算机科技(纪王分公司),闵行区,31.248313,121.275493,教育培训;中学
上影演艺学校,青浦区,31.161338,121.213268,教育培训;中学
青浦区海贝业余英语学校华新中学教学点,青浦区,31.24792,121.237269,教育培训;中学
七宝中学,闵行区,31.156617,121.374237,教育培训;中学
文来中学,闵行区,31.155417,121.372065,教育培训;中学
上海美国学校,闵行区,31.210589,121.286954,教育培训;中学
上海市延安中学(茅台路),长宁区,31.215409,121.387095,教育培训;中学
上海美高学校,闵行区,31.239236,121.282964,教育培训;中学
上海市梅陇中学,普陀区,31.248733,121.395909,教育培训;中学
九亭中学,松江区,31.157818,121.314896,教育培训;中学
上海外国语大学闵行外国语中学,闵行区,31.226105,121.310844,教育培训;中学
华东师范大学第四附属中学,普陀区,31.230347,121.392615,教育培训;中学
上海市古美高级中学,闵行区,31.155278,121.39051,教育培训;中学
上海文来中学,闵行区,31.146064,121.388563,教育培训;中学
上海市现代职业技术学校,长宁区,31.214862,121.393548,教育培训;中学
上海七宝德怀特高级中学,闵行区,31.165999,121.381639,教育培训;中学
天山初级中学,长宁区,31.222417,121.395334,教育培训;中学
长征中学,普陀区,31.24417,121.383382,教育培训;中学
新泾中学,长宁区,31.217226,121.370455,教育培训;中学
上海市航华中学,闵行区,31.178992,121.359267,教育培训;中学
七宝第二中学,闵行区,31.161063,121.359254,教育培训;中学
上海市公用事业学校(漕宝校区),闵行区,31.167495,121.377159,教育培训;中学
上海市贸易学校,普陀区,31.233494,121.370813,教育培训;中学
上海市文来实验学校,闵行区,31.210148,121.314496,教育培训;中学
上海市航华第二中学,闵行区,31.171816,121.356363,教育培训;中学
上海市七宝实验中学,闵行区,31.168661,121.38869,教育培训;中学
上海市龙茗中学,闵行区,31.14248,121.388769,教育培训;中学
上海市现代职业技术学校(新渔路),长宁区,31.222317,121.371542,教育培训;中学
上海市上虹中学,闵行区,31.180386,121.395152,教育培训;中学
上海市嘉定区封浜高级中学,嘉定区,31.248514,121.316972,教育培训;中学
上海德国学校,青浦区,31.167681,121.314741,教育培训;中学
上海市闵行区七宝第三中学,闵行区,31.160346,121.369313,教育培训;中学
上海市龙柏中学,闵行区,31.184044,121.368514,教育培训;中学
徐泾中学(诚爱路),青浦区,31.181097,121.280217,教育培训;中学
上海市丰庄中学,嘉定区,31.248921,121.368959,教育培训;中学
上海市曹杨中学附属学校,普陀区,31.243293,121.365805,教育培训;中学
上海市马戏学校,闵行区,31.192582,121.379552,教育培训;中学
上海市西延安中学分部,长宁区,31.226659,121.371878,教育培训;中学
上宝中学(西校区),闵行区,31.146017,121.370808,教育培训;中学
长宁区虹桥中学,长宁区,31.197069,121.387458,教育培训;中学
上海市珠峰中学,嘉定区,31.242892,121.327962,教育培训;中学
徐泾中学(京华路),青浦区,31.175591,121.282854,教育培训;中学
上海市新元学校,长宁区,31.218033,121.396243,教育培训;中学
上海市国际旅游职业技术学校,长宁区,31.222366,121.371636,教育培训;中学
复旦中学西部校区-东区,长宁区,31.221601,121.367792,教育培训;中学
上海市七宝中学教育集团,闵行区,31.154994,121.373391,教育培训;中学
徐泾中学东区,青浦区,31.175352,121.281965,教育培训;中学
上海邦德第二高级中学,闵行区,31.160387,121.35902,教育培训;中学
上海市现代职业技术学校国际旅职,长宁区,31.222521,121.371714,教育培训;中学
罗记技工,闵行区,31.156831,121.364487,教育培训;中学
扬泰技师,普陀区,31.241509,121.365632,教育培训;中学
詹氏技工,长宁区,31.215863,121.365596,教育培训;中学
上海市工业技术学校,徐汇区,31.153213,121.459706,教育培训;中学
上海中学,徐汇区,31.14595,121.44287,教育培训;中学
上海市格致中学,黄浦区,31.236867,121.486526,教育培训;中学
南洋中学,徐汇区,31.196409,121.471839,教育培训;中学
上海市实验中学,浦东新区,31.188383,121.515312,教育培训;中学
上海市曹杨二中学,普陀区,31.246187,121.407078,教育培训;中学
上海商业会计学校,黄浦区,31.21753,121.49777,教育培训;中学
上海市大同中学,黄浦区,31.212788,121.500105,教育培训;中学
上海市市西中学,静安区,31.229771,121.4466,教育培训;中学
上海市育人中学,浦东新区,31.14344,121.514189,教育培训;中学
比乐中学,黄浦区,31.227574,121.486466,教育培训;中学
上海市世界外国语中学,徐汇区,31.156117,121.421723,教育培训;中学
上海中国中学,徐汇区,31.166687,121.435281,教育培训;中学
上海市五爱高级中学,黄浦区,31.206664,121.491298,教育培训;中学
上海市第八中学,黄浦区,31.217994,121.503104,教育培训;中学
上海市龙苑中学,徐汇区,31.164015,121.460553,教育培训;中学
上海音乐学院附中,徐汇区,31.214615,121.456408,教育培训;中学
上海市三林中学,浦东新区,31.145781,121.512008,教育培训;中学
上海外国语大学附属大境中学,黄浦区,31.208985,121.497596,教育培训;中学
上海市泸定中学,长宁区,31.207566,121.420454,教育培训;中学
上海市格致初级中学,黄浦区,31.241737,121.478625,教育培训;中学
上海市第五十四中学,徐汇区,31.211264,121.449831,教育培训;中学
南洋模范中学(本部),徐汇区,31.19652,121.458153,教育培训;中学
上海市第三女子初级中学,长宁区,31.229346,121.437158,教育培训;中学
上海市西南模范中学,徐汇区,31.152414,121.442629,教育培训;中学
上海市信息管理学校中职一部,徐汇区,31.20306,121.440285,教育培训;中学
上海市商贸旅游学校(贵州路),黄浦区,31.243235,121.48222,教育培训;中学
上海市光明中学,黄浦区,31.232138,121.487392,教育培训;中学
田林三中,徐汇区,31.179475,121.43588,教育培训;中学
上海市杨思高级中学,浦东新区,31.159639,121.504465,教育培训;中学
徐汇中学,徐汇区,31.198645,121.442313,教育培训;中学
上海教科实验中学,闵行区,31.141199,121.40323,教育培训;中学
徐汇区教师进修学院附属实验中学,徐汇区,31.144027,121.439103,教育培训;中学
上海市第一中学,静安区,31.242476,121.448541,教育培训;中学
上海市恒丰中学,静安区,31.24856,121.467307,教育培训;中学
上海市西南位育中学(西校区),徐汇区,31.18355,121.431051,教育培训;中学
华东政法大学附属中学,长宁区,31.212243,121.435015,教育培训;中学
上海市城市建设工程学校(丽园路),黄浦区,31.215402,121.492681,教育培训;中学
上海市武宁中学,普陀区,31.248508,121.430204,教育培训;中学
上海市五四中学,静安区,31.238254,121.456782,教育培训;中学
上海市园南中学(百色路),徐汇区,31.148636,121.451493,教育培训;中学
建青实验学校(古羊路),长宁区,31.198408,121.407259,教育培训;中学
上海市第四中学,徐汇区,31.198375,121.447271,教育培训;中学
上海市实验学校西校,闵行区,31.153885,121.405753,教育培训;中学
上海市西南位育中学(北校区),徐汇区,31.18564,121.423851,教育培训;中学
上海市零陵中学,徐汇区,31.195428,121.462781,教育培训;中学
上海市曹杨第二中学附属学校,普陀区,31.241781,121.412365,教育培训;中学
上海市天山第二中学,长宁区,31.218178,121.402622,教育培训;中学
同济大学附属七一中学,静安区,31.237013,121.458649,教育培训;中学
上海市徐汇职业高级中学(天等路),徐汇区,31.141029,121.435515,教育培训;中学
上海市金陵中学,黄浦区,31.237587,121.498443,教育培训;中学
上海市第十中学,黄浦区,31.221709,121.495394,教育培训;中学
上海市省吾中学,长宁区,31.231089,121.429519,教育培训;中学
上海市黄浦区教育学院附属中山学校,黄浦区,31.201319,121.483569,教育培训;中学
上海市向东中学,静安区,31.248668,121.476736,教育培训;中学
中华职业学校,黄浦区,31.207448,121.479074,教育培训;中学
上海市兴陇中学(南路总部),普陀区,31.243388,121.416867,教育培训;中学
市南中学,黄浦区,31.219119,121.502925,教育培训;中学
房地产职业技术学校,普陀区,31.246447,121.42893,教育培训;中学
上海协和双语高级中学,闵行区,31.195266,121.412866,教育培训;中学
上海民办南模中学,徐汇区,31.183083,121.451753,教育培训;中学
上海中学-国际部,徐汇区,31.148565,121.444566,教育培训;中学
上海师大附中附属龙华中学,徐汇区,31.180947,121.452427,教育培训;中学
上海市田林中学(东校区),徐汇区,31.180693,121.425923,教育培训;中学
复旦中学,长宁区,31.210763,121.440039,教育培训;中学
上海市杨思中学,浦东新区,31.167361,121.510242,教育培训;中学
上海市梅园中学,徐汇区,31.143462,121.424934,教育培训;中学
上海逸夫中学,静安区,31.227412,121.459165,教育培训;中学
上海市城市建设工程学校,徐汇区,31.178634,121.455094,教育培训;中学
上海市李惠利中学,黄浦区,31.217597,121.487672,教育培训;中学
静教院附校,静安区,31.244737,121.452285,教育培训;中学
上海市电视高级中学,长宁区,31.221272,121.429513,教育培训;中学
上海位育初级中学,徐汇区,31.217626,121.463159,教育培训;中学
紫竹园中学,徐汇区,31.140254,121.456158,教育培训;中学
华东模范中学,静安区,31.226845,121.456264,教育培训;中学
上海市育才初级中学,静安区,31.24085,121.467869,教育培训;中学
向明初级中学,黄浦区,31.229006,121.464536,教育培训;中学
上海市民办立达中学,黄浦区,31.213607,121.499502,教育培训;中学
上海师大第三附属实验学校,徐汇区,31.169354,121.444537,教育培训;中学
时代中学,静安区,31.240743,121.457505,教育培训;中学
上海长宁国际学校,长宁区,31.204583,121.415806,教育培训;中学
上海市三林中学北校,浦东新区,31.149905,121.509969,教育培训;中学
上海市位育实验学校,徐汇区,31.224111,121.459923,教育培训;中学
上海市西南位育中学(东校区),徐汇区,31.198693,121.466971,教育培训;中学
长宁中学,长宁区,31.225218,121.418842,教育培训;中学
明珠中学,黄浦区,31.235783,121.485156,教育培训;中学
上海市储能中学,黄浦区,31.234331,121.475832,教育培训;中学
上海戏剧学院附属高级中学,静安区,31.238459,121.448505,教育培训;中学
向明中学东区,黄浦区,31.227336,121.471091,教育培训;中学
上海市杨思中学(北校区),浦东新区,31.162175,121.501294,教育培训;中学
上海市田林第二中学,徐汇区,31.176367,121.430062,教育培训;中学
上海常青中学,浦东新区,31.182894,121.498101,教育培训;中学
上海市尚文中学,黄浦区,31.223552,121.50929,教育培训;中学
上海市世界外国语中学,徐汇区,31.151351,121.418651,教育培训;中学
上海市逸夫职业技术学校(静安分部),静安区,31.232222,121.442348,教育培训;中学
上海市邮电学校,徐汇区,31.146373,121.435421,教育培训;中学
南洋模范初级中学(天平校区),徐汇区,31.207283,121.443377,教育培训;中学
上海音乐学院附属安师实验中学,普陀区,31.244249,121.431744,教育培训;中学
上海市大同初级中学,黄浦区,31.210499,121.499524,教育培训;中学
上海市启秀实验中学,黄浦区,31.222626,121.47406,教育培训;中学
上海市徐汇职业高级中学(漕东支路),徐汇区,31.178485,121.444533,教育培训;中学
上海市宛平中学,徐汇区,31.18512,121.453455,教育培训;中学
上海市怒江中学,普陀区,31.241042,121.408658,教育培训;中学
上海市兴业中学,黄浦区,31.217482,121.479445,教育培训;中学
耀华国际中学,长宁区,31.214172,121.406434,教育培训;中学
培明中学,静安区,31.235589,121.453816,教育培训;中学
新世纪中学,长宁区,31.200842,121.42485,教育培训;中学
上海市聋哑青年技术学校,徐汇区,31.145184,121.438727,教育培训;中学
上海市西南工程学校(罗城路),徐汇区,31.159466,121.454279,教育培训;中学
上海市西南高级中学,徐汇区,31.203813,121.434048,教育培训;中学
上海静安外国语中学,静安区,31.2391,121.468613,教育培训;中学
清华中学,黄浦区,31.22043,121.468494,教育培训;中学
上海市立达初级中学(分部),黄浦区,31.214498,121.496149,教育培训;中学
上海市西初级中学(西部),静安区,31.232132,121.439983,教育培训;中学
上海市八初级中学,黄浦区,31.227315,121.506826,教育培训;中学
上海市光明初级中学,黄浦区,31.229159,121.498437,教育培训;中学
徐汇区财贸职工中等专业学校,徐汇区,31.192233,121.442041,教育培训;中学
上海市康健外国语实验中学,徐汇区,31.158836,121.419158,教育培训;中学
上海市历城中学,浦东新区,31.178579,121.497001,教育培训;中学
上海耀中国际学校(荣华西道),长宁区,31.198438,121.400322,教育培训;中学
汾阳中学,徐汇区,31.156681,121.442841,教育培训;中学
上海市裘锦秋实验学校(新桥分校),黄浦区,31.246156,121.47189,教育培训;中学
上海评弹团,静安区,31.237085,121.466834,教育培训;中学
上海市中教育(上南分校),浦东新区,31.181135,121.516153,教育培训;中学
上海外国语大学附属大境初级中学,黄浦区,31.209579,121.494646,教育培训;中学
上海市现代职业技术学校国旅校部,长宁区,31.21356,121.43633,教育培训;中学
同济大学第二附属中学(初中部),普陀区,31.245973,121.442028,教育培训;中学
交行大楼衡山路地铁口,徐汇区,31.2132,121.456612,教育培训;中学
浦光中学,黄浦区,31.247636,121.492558,教育培训;中学
康定中学,静安区,31.238861,121.444512,教育培训;中学
上海市卫生学校,徐汇区,31.146315,121.433378,教育培训;中学
上海市高级技工学校(天山校区),长宁区,31.214774,121.41782,教育培训;中学
上海市敬业初级中学,黄浦区,31.221932,121.499606,教育培训;中学
娄山中学-西区,长宁区,31.220904,121.407558,教育培训;中学
嘉定区杨柳中学,静安区,31.249162,121.487899,教育培训;中学
上海市第四中学,徐汇区,31.201332,121.453638,教育培训;中学
上海市徐汇中学(西校区),徐汇区,31.199018,121.432652,教育培训;中学
上海市龙漕中学,徐汇区,31.178365,121.448314,教育培训;中学
向明中学-国际部,黄浦区,31.227184,121.470673,教育培训;中学
上海燎原高级中学,闵行区,31.151086,121.413444,教育培训;中学
同济黄浦设计创意中学,黄浦区,31.247691,121.49285,教育培训;中学
上海市新晖中学,黄浦区,31.202141,121.476751,教育培训;中学
上海市三好中学,黄浦区,31.209014,121.490274,教育培训;中学
董恒甫高级中学(汇塘校区),徐汇区,31.193391,121.441295,教育培训;中学
上海市逸夫职业技术学校,静安区,31.223333,121.451581,教育培训;中学
上海市世界外国语中学-国际部,徐汇区,31.151237,121.419034,教育培训;中学
上海市信息管理学校-黄恒浦高级中学,徐汇区,31.19338,121.441212,教育培训;中学
航天学校,徐汇区,31.185269,121.42021,教育培训;中学
春申旅游成人中专,静安区,31.244161,121.451779,教育培训;中学
上海市第四中学(南部校区),徐汇区,31.197762,121.449462,教育培训;中学
上外静安外国语中学-上海市建承中学,静安区,31.238952,121.468666,教育培训;中学
复兴书院,黄浦区,31.221356,121.478265,教育培训;中学
美国林登高中上海校区,普陀区,31.244644,121.438779,教育培训;中学
徐汇区第一职工业余中学,徐汇区,31.193478,121.440305,教育培训;中学
延安中学-初中,长宁区,31.221806,121.433931,教育培训;中学
1903民立中学,静安区,31.231689,121.465186,教育培训;中学
西南模范中学-东区,徐汇区,31.152354,121.441973,教育培训;中学
德州中学(长清路),浦东新区,31.175678,121.496053,教育培训;中学
时代中学南部,静安区,31.240276,121.458074,教育培训;中学
上海市上海中学上海中学国际部,徐汇区,31.143729,121.441176,教育培训;中学
复旦大学上海视觉艺术学院附属高中,静安区,31.22751,121.459426,教育培训;中学
华东模范中学-西部,静安区,31.226928,121.456403,教育培训;中学
纪勋初等职业技术学校,徐汇区,31.19229,121.457689,教育培训;中学
锦绣园中学,黄浦区,31.231948,121.503435,教育培训;中学
上海市图书馆职工中等专业学校,徐汇区,31.2163,121.454535,教育培训;中学
上海市向锋中学,黄浦区,31.208551,121.482979,教育培训;中学
上海市徐汇区职业技术高级中学,徐汇区,31.178803,121.444029,教育培训;中学
166,长宁区,31.228407,121.441274,教育培训;中学
上海师范大学附属中学,徐汇区,31.169399,121.425528,教育培训;中学
上海市国际高中学校,徐汇区,31.186935,121.450642,教育培训;中学
上海市民办东元高级中学,黄浦区,31.206824,121.499278,教育培训;中学
时代中学-北部,静安区,31.240781,121.457314,教育培训;中学
PGA中美高中国际课程上海市大同中学教学中心,黄浦区,31.212447,121.499396,教育培训;中学
中华职业学校上海长乐霍尔姆斯职业学校,黄浦区,31.207936,121.483214,教育培训;中学
上海市民办立达中学南区,黄浦区,31.21363,121.499656,教育培训;中学
上海应用技术学院-计算机实验中,徐汇区,31.171883,121.42685,教育培训;中学
新课程中学生网络优培课程,徐汇区,31.203729,121.434748,教育培训;中学
上海市静安区业余大学-附属中学,静安区,31.239869,121.446825,教育培训;中学
上海市工业技术学校(天钥桥南路),徐汇区,31.16435,121.462147,教育培训;中学
格致中学金陵街道云南分校,黄浦区,31.233228,121.489293,教育培训;中学
上海云岭实验中学,普陀区,31.235801,121.407553,教育培训;中学
第九届澳洲精英中学展之悉尼私校风采,黄浦区,31.240272,121.482503,教育培训;中学
剑桥国际高中,浦东新区,31.18288,121.498192,教育培训;中学
上海应用技术学院黄浦教学点,黄浦区,31.216013,121.494242,教育培训;中学
昂立中学,普陀区,31.24178,121.427385,教育培训;中学
上海市黄浦区业余中学,黄浦区,31.243259,121.482214,教育培训;中学
大诚中学,徐汇区,31.18405,121.43757,教育培训;中学
上海民办邦德第四高级中学,徐汇区,31.201073,121.468539,教育培训;中学
中华职业学校国际部,黄浦区,31.207954,121.483927,教育培训;中学
C.R.高级成衣间,徐汇区,31.216631,121.467859,教育培训;中学
上海市劳动管理职工中等专业学校(天山校区),长宁区,31.215149,121.417525,教育培训;中学
上海市民办黄河高级中学,普陀区,31.244432,121.440441,教育培训;中学
航空运动学校,徐汇区,31.163438,121.462138,教育培训;中学
机电一所,黄浦区,31.242019,121.495091,教育培训;中学
黄浦区职工中等专业学校,黄浦区,31.213449,121.470212,教育培训;中学
上海市公用事业学校(凯旋路),徐汇区,31.198168,121.430525,教育培训;中学
华东师范大学附属卢湾辅读实验学校,黄浦区,31.212003,121.486356,教育培训;中学
华东师范大学第二附属中学,浦东新区,31.206862,121.597639,教育培训;中学
上海尙德实验学校,浦东新区,31.141163,121.602829,教育培训;中学
上海市医药学校(沈家弄路),浦东新区,31.242823,121.546275,教育培训;中学
进才中学,浦东新区,31.234601,121.55249,教育培训;中学
上海平和双语学校,浦东新区,31.246277,121.596377,教育培训;中学
上海市浦东上船职业技术学校,浦东新区,31.156166,121.565699,教育培训;中学
上海市进才中学北校,浦东新区,31.240435,121.558535,教育培训;中学
上海市第二轻工业学校,浦东新区,31.242636,121.544789,教育培训;中学
上海市建平世纪中学,浦东新区,31.215818,121.552784,教育培训;中学
上南中学,浦东新区,31.189677,121.534897,教育培训;中学
东昌中学,浦东新区,31.240507,121.521983,教育培训;中学
上海纽约大学附属洋泾中学,浦东新区,31.230626,121.527693,教育培训;中学
上海市浦东外事服务学校,浦东新区,31.207783,121.545855,教育培训;中学
建平中学,浦东新区,31.249901,121.565342,教育培训;中学
上海新竹园中学(潍坊路),浦东新区,31.234766,121.539923,教育培训;中学
上海外国语大学附属浦东外国语学校,浦东新区,31.19998,121.594076,教育培训;中学
上海张江集团学校,浦东新区,31.207874,121.600668,教育培训;中学
上海市环境学校(浦东校区),浦东新区,31.243907,121.545669,教育培训;中学
上海交通大学附属中学浦东实验高中,浦东新区,31.24582,121.53268,教育培训;中学
上海市文建中学,浦东新区,31.215564,121.532495,教育培训;中学
上海市浦东中学,浦东新区,31.193368,121.521571,教育培训;中学
上海协和国际学校,浦东新区,31.244978,121.597414,教育培训;中学
上海市由由中学,浦东新区,31.196881,121.537059,教育培训;中学
建平中学西校(大唐校区),浦东新区,31.21279,121.562901,教育培训;中学
上海市三林中学东校,浦东新区,31.14502,121.530908,教育培训;中学
上海民办洋泾外国语学校,浦东新区,31.22427,121.528855,教育培训;中学
上海洋泾中学南校,浦东新区,31.204128,121.533001,教育培训;中学
建平中学南校,浦东新区,31.218938,121.527442,教育培训;中学
上海民办进才外国语中学,浦东新区,31.20933,121.548125,教育培训;中学
上海市进才实验中学,浦东新区,31.231914,121.56322,教育培训;中学
上海市浦东新区教育学院实验中学,浦东新区,31.169048,121.546423,教育培训;中学
上海市洋泾中学东校,浦东新区,31.229511,121.533279,教育培训;中学
进才中学国际部,浦东新区,31.219877,121.539606,教育培训;中学
上海市上南中学南校,浦东新区,31.151694,121.540738,教育培训;中学
育辛高级中学,浦东新区,31.198519,121.52181,教育培训;中学
上海耀中国际学校(东绣路),浦东新区,31.208457,121.537187,教育培训;中学
华东师大张江实验中学,浦东新区,31.212177,121.625697,教育培训;中学
上海海运学校,浦东新区,31.244781,121.534751,教育培训;中学
上海市浦泾中学,浦东新区,31.203134,121.521058,教育培训;中学
上南中学北校,浦东新区,31.187496,121.521753,教育培训;中学
建平实验中学地杰国际城校区,浦东新区,31.165706,121.579556,教育培训;中学
华东师范大学附属东昌中学南校,浦东新区,31.232553,121.526058,教育培训;中学
浦外附中,浦东新区,31.199981,121.594074,教育培训;中学
上海儿童医学中心儿科转化医学研究所动物实验部,浦东新区,31.21246,121.528394,教育培训;中学
建平实验中学张江校区,浦东新区,31.187261,121.62284,教育培训;中学
上海进才实验学校,浦东新区,31.236172,121.567687,教育培训;中学
上海市萌芽实验中学,浦东新区,31.216859,121.525981,教育培训;中学
上海科技大学附属学校(建设中),浦东新区,31.169537,121.614618,教育培训;中学
中欧国际工商学院教学中心-二,浦东新区,31.242474,121.603858,教育培训;中学
上海市洋泾中学国际部,浦东新区,31.230421,121.527006,教育培训;中学
商贸旅游学校浦东校区-北区,浦东新区,31.227029,121.523484,教育培训;中学
上海中侨职业技术学院-剑桥国际高中,浦东新区,31.150184,121.631033,教育培训;中学
中港第三航务工程局职工中等专业学校,浦东新区,31.147887,121.572581,教育培训;中学
上海航务技工学校,浦东新区,31.14789,121.572586,教育培训;中学
晨曦,浦东新区,31.242304,121.547376,教育培训;中学
比隆乐高中心,浦东新区,31.164689,121.580089,教育培训;中学
海事职业技术学院中专部,浦东新区,31.241831,121.53725,教育培训;中学
上海轻工陆家嘴技术学校,浦东新区,31.21944,121.531645,教育培训;中学
校秤间,浦东新区,31.215809,121.528774,教育培训;中学
SHANGHAI COMMUNITY,浦东新区,31.140698,121.572402,教育培训;中学
上海市商贸旅游学校(浦东校区),浦东新区,31.226702,121.52485,教育培训;中学
上海市川沙中学,浦东新区,31.200673,121.707276,教育培训;中学
上海市新川中学,浦东新区,31.200528,121.681866,教育培训;中学
上海市航空服务学校,浦东新区,31.195889,121.715016,教育培训;中学
蔡路中学,浦东新区,31.220134,121.73571,教育培训;中学
合庆中学,浦东新区,31.245739,121.725271,教育培训;中学
上海市川沙中学华夏西校,浦东新区,31.202046,121.689734,教育培训;中学
上海市民办民远高级中学,浦东新区,31.205511,121.667298,教育培训;中学
上海市施湾中学(施湾二路),浦东新区,31.149779,121.753181,教育培训;中学
浦东新区教育学院附属学校,浦东新区,31.203746,121.697056,教育培训;中学
上海市川沙中学北校,浦东新区,31.209422,121.707692,教育培训;中学
城南初级中学,浦东新区,31.184394,121.697003,教育培训;中学
上海市浦东新区育英学校,浦东新区,31.19635,121.687508,教育培训;中学
上海市川沙中学华夏西校(妙境路校区),浦东新区,31.200212,121.696813,教育培训;中学
王港中学(恒生校区),浦东新区,31.24716,121.681051,教育培训;中学
上海电视高级中学,浦东新区,31.205898,121.720841,教育培训;中学
江镇中学,浦东新区,31.180665,121.76055,教育培训;中学
上海市施湾中学(川南奉公路),浦东新区,31.159449,121.764505,教育培训;中学
上海民办华二初级中学,嘉定区,31.347005,121.258275,教育培训;中学
上海交通大学附属中学(嘉定分校),嘉定区,31.358179,121.250819,教育培训;中学
安亭高级中学,嘉定区,31.330509,121.169059,教育培训;中学
震川中学,嘉定区,31.30864,121.161732,教育培训;中学
嘉定区黄渡中学,嘉定区,31.280869,121.215671,教育培训;中学
方泰中学,嘉定区,31.324087,121.214525,教育培训;中学
同济大学附属实验中学,嘉定区,31.284929,121.169209,教育培训;中学
上海外国语大学嘉定外国语学校,嘉定区,31.331919,121.168757,教育培训;中学
上海市曹杨职业技术学校(清涧路),普陀区,31.269025,121.391968,教育培训;中学
上海信息技术学校,普陀区,31.277953,121.386414,教育培训;中学
上海桐柏高级中学,普陀区,31.263712,121.392987,教育培训;中学
普陀区教育学院附属中学,普陀区,31.260832,121.39526,教育培训;中学
上海大学附属中学,宝山区,31.315339,121.397454,教育培训;中学
上海市现代流通学校,宝山区,31.325197,121.384795,教育培训;中学
上海市曹杨中学,嘉定区,31.250763,121.374137,教育培训;中学
嘉定区第二中学,嘉定区,31.301927,121.317346,教育培训;中学
育才中学,嘉定区,31.3308,121.290384,教育培训;中学
上海市玉华中学,普陀区,31.256201,121.388696,教育培训;中学
上海鸿文国际职业高级中学,宝山区,31.355411,121.358671,教育培训;中学
曹杨二中附属江桥实验中学,嘉定区,31.262356,121.328123,教育培训;中学
上海市嘉定区南翔中学,嘉定区,31.305873,121.31335,教育培训;中学
上海市桃浦中学,普陀区,31.288465,121.358732,教育培训;中学
留云中学,嘉定区,31.320256,121.327811,教育培训;中学
上海市嘉定区金鹤中学,嘉定区,31.253651,121.323242,教育培训;中学
杨柳初中,嘉定区,31.277368,121.299855,教育培训;中学
嘉定区马陆育才联合中学,嘉定区,31.330061,121.286111,教育培训;中学
上海市刘行新华实验学校,宝山区,31.353724,121.368083,教育培训;中学
新杨中学,普陀区,31.293048,121.361123,教育培训;中学
上海市物资学校,宝山区,31.325074,121.384939,教育培训;中学
华江中学,嘉定区,31.275433,121.349446,教育培训;中学
嘉定区封浜中学,嘉定区,31.276454,121.30043,教育培训;中学
韦哲国际创意中心普陀中环教学中心,普陀区,31.250238,121.386744,教育培训;中学
宝山区顾村镇海蓝学校,宝山区,31.33416,121.357634,教育培训;中学
槎溪高级中学,嘉定区,31.304012,121.289511,教育培训;中学
上海宝山城市实验学校(建设中),宝山区,31.324789,121.359283,教育培训;中学
上海市物资学校建宁楼,宝山区,31.324536,121.386333,教育培训;中学
桃苑村学校,普陀区,31.295169,121.370421,教育培训;中学
第一点睛,嘉定区,31.30403,121.311036,教育培训;中学
上海市宜川中学,普陀区,31.268151,121.451327,教育培训;中学
晋元高级中学,普陀区,31.276679,121.404364,教育培训;中学
上海交通大学附属中学,宝山区,31.324887,121.49563,教育培训;中学
上海市北海中学(管弄路分校),普陀区,31.263918,121.433038,教育培训;中学
上海市复兴高级中学,虹口区,31.299734,121.489073,教育培训;中学
新中高级中学,静安区,31.291206,121.439865,教育培训;中学
上海市虹口高级中学,虹口区,31.28904,121.472776,教育培训;中学
上海市甘泉外国语中学(宜川路),普陀区,31.269717,121.442413,教育培训;中学
上海市民办新华初级中学,虹口区,31.25868,121.488213,教育培训;中学
上海市田家炳中学(阳泉路),静安区,31.325594,121.470423,教育培训;中学
进华中学,普陀区,31.270183,121.415532,教育培训;中学
上海市贸易学校,杨浦区,31.284801,121.509578,教育培训;中学
上海市回民中学,普陀区,31.275556,121.44125,教育培训;中学
上海市杨浦高级中学,杨浦区,31.282709,121.506995,教育培训;中学
上海继光高级中学,虹口区,31.265094,121.504639,教育培训;中学
市北中学,静安区,31.258435,121.476623,教育培训;中学
上海兰田中学,普陀区,31.250845,121.4269,教育培训;中学
上海市交通学校,宝山区,31.348827,121.44784,教育培训;中学
市北初级中学,静安区,31.261658,121.473786,教育培训;中学
华东师范大学第一附属中学,虹口区,31.27136,121.508303,教育培训;中学
上海市民办交华中学,宝山区,31.282475,121.424131,教育培训;中学
上海音乐学院实验学校,杨浦区,31.333199,121.517523,教育培训;中学
上海市体育运动学校,虹口区,31.280234,121.479535,教育培训;中学
上海市第五十二中学,虹口区,31.287898,121.484772,教育培训;中学
上海市高级技工学校(逸仙路),虹口区,31.301199,121.493738,教育培训;中学
上海市虹口区教育学院实验中学,虹口区,31.266047,121.490747,教育培训;中学
民办新北郊初级中学,虹口区,31.284704,121.493341,教育培训;中学
真如中学,普陀区,31.255901,121.40516,教育培训;中学
上海市民办新复兴初级中学,虹口区,31.271357,121.489212,教育培训;中学
虹口区钟山初级中学,虹口区,31.307557,121.473108,教育培训;中学
上海市彭浦中学,静安区,31.318888,121.448204,教育培训;中学
上海市青云中学,静安区,31.26651,121.475652,教育培训;中学
顾村中学,宝山区,31.357738,121.401055,教育培训;中学
北虹高级中学,虹口区,31.254323,121.498378,教育培训;中学
上海市市北职业高级中学,静安区,31.264845,121.483973,教育培训;中学
中远实验学校,普陀区,31.257648,121.442831,教育培训;中学
上海市同洲模范学校,宝山区,31.327773,121.463415,教育培训;中学
通河中学,宝山区,31.341702,121.447339,教育培训;中学
复旦大学-第二附属中学,杨浦区,31.296093,121.512088,教育培训;中学
上海市延河中学,普陀区,31.273883,121.443531,教育培训;中学
上海市大华中学,宝山区,31.286479,121.420322,教育培训;中学
万里城实验学校,普陀区,31.270469,121.425612,教育培训;中学
上海新闻出版职业技术学校,宝山区,31.348295,121.446403,教育培训;中学
岭南中学,静安区,31.31915,121.465596,教育培训;中学
上海外国语大学-第一实验学校,虹口区,31.283189,121.486949,教育培训;中学
上海市风华初级中学,静安区,31.298171,121.465374,教育培训;中学
上海市第六十中学,静安区,31.270105,121.478386,教育培训;中学
上海市铁岭中学,杨浦区,31.284985,121.51698,教育培训;中学
上海市闸北第八中学,静安区,31.307762,121.44309,教育培训;中学
上海市丰镇中学,虹口区,31.310998,121.485074,教育培训;中学
上海市曲阳第二中学,虹口区,31.285579,121.502501,教育培训;中学
上海市南湖高级中学,宝山区,31.318849,121.490619,教育培训;中学
共康中学,静安区,31.321395,121.443164,教育培训;中学
凯慧中学,杨浦区,31.277955,121.512054,教育培训;中学
上海市教育学会宝山实验学校,宝山区,31.328384,121.480229,教育培训;中学
上海大学市附属中学,静安区,31.266026,121.470293,教育培训;中学
上海市育群中学,静安区,31.268374,121.463077,教育培训;中学
上海久隆模范中学,静安区,31.313796,121.461243,教育培训;中学
上海理工大学附属实验学校,普陀区,31.259954,121.439974,教育培训;中学
上海市迅行中学(玉田路),虹口区,31.284403,121.500274,教育培训;中学
上海市泗塘第二中学,宝山区,31.336129,121.461188,教育培训;中学
上海市普陀区明翔实验学校,普陀区,31.271126,121.401914,教育培训;中学
行知实验中学,宝山区,31.291689,121.424719,教育培训;中学
上海市高境第一中学,宝山区,31.324616,121.485441,教育培训;中学
上海外国语大学附属外国语学校(中山北一路校区),虹口区,31.284172,121.486409,教育培训;中学
上海市求真中学,宝山区,31.343208,121.456864,教育培训;中学
上海市虎林中学,宝山区,31.346362,121.463201,教育培训;中学
上海市鲁迅中学,虹口区,31.281076,121.483959,教育培训;中学
上海市泗塘中学,宝山区,31.338204,121.451787,教育培训;中学
复旦大学附属中学国际部,杨浦区,31.295622,121.514637,教育培训;中学
上海市三门中学,杨浦区,31.312879,121.499185,教育培训;中学
上海市彭浦初级中学,静安区,31.31634,121.457035,教育培训;中学
上海市江湾初级中学,虹口区,31.305231,121.482237,教育培训;中学
上海市新中初级中学,静安区,31.301473,121.43481,教育培训;中学
大场中学,宝山区,31.312574,121.406104,教育培训;中学
上海市和田中学,静安区,31.280864,121.46151,教育培训;中学
上海财经大学附属北郊高级中学,虹口区,31.281639,121.496186,教育培训;中学
晋元高级中学附属学校(分部),普陀区,31.282736,121.405744,教育培训;中学
上海市静安区实验中学,静安区,31.260963,121.46059,教育培训;中学
宜川中学-附属学校,普陀区,31.264651,121.452554,教育培训;中学
高境三中,宝山区,31.324704,121.501394,教育培训;中学
上海市南湖职业学校(第二分校),虹口区,31.299081,121.501199,教育培训;中学
上海市铜川中学,普陀区,31.255893,121.400699,教育培训;中学
上海市长江第二中学,宝山区,31.341872,121.48385,教育培训;中学
甘霖初级职业技术学校,普陀区,31.273539,121.441595,教育培训;中学
上海市彭浦第三中学,静安区,31.320457,121.457003,教育培训;中学
朝阳中学,静安区,31.2593,121.484521,教育培训;中学
上海市华东师大一附初中,虹口区,31.272007,121.504163,教育培训;中学
上海市第五中学,虹口区,31.299902,121.47827,教育培训;中学
保德中学,静安区,31.324037,121.461225,教育培训;中学
上海市呼玛中学,宝山区,31.349734,121.45557,教育培训;中学
甘泉外国语中学分部,普陀区,31.27088,121.441463,教育培训;中学
上海市真北中学,普陀区,31.263006,121.4026,教育培训;中学
瑞红中学,虹口区,31.28536,121.483868,教育培训;中学
上海同洲模范学校分校,宝山区,31.329135,121.468877,教育培训;中学
上海市彭浦第四中学,静安区,31.314972,121.452038,教育培训;中学
宝山职校,宝山区,31.341175,121.460542,教育培训;中学
上海市民办精文中学,静安区,31.314626,121.471437,教育培训;中学
上海市北虹初级中学,虹口区,31.280716,121.481765,教育培训;中学
上海市鞍山初级中学,杨浦区,31.275989,121.514239,教育培训;中学
上海健康医学院附属卫生学校(虹口分校),虹口区,31.309912,121.488119,教育培训;中学
复旦大学附属学校教育集团同济初级中学,杨浦区,31.308046,121.517033,教育培训;中学
上海市澄衷高级中学,虹口区,31.260722,121.510029,教育培训;中学
上海市宝山区高境镇第四中学,宝山区,31.330671,121.459066,教育培训;中学
上海市复兴实验中学,虹口区,31.294794,121.48121,教育培训;中学
上海外国语大学附属外国语学校东校,虹口区,31.280964,121.505932,教育培训;中学
彭顺中学,静安区,31.323062,121.465987,教育培训;中学
鲁迅初级中学,虹口区,31.269872,121.493742,教育培训;中学
上海市民办青中中学,静安区,31.261305,121.471978,教育培训;中学
上海春晖职业技术学校,普陀区,31.264959,121.439793,教育培训;中学
上海市澄源中学(延长西路),普陀区,31.265628,121.435614,教育培训;中学
上师大附中,普陀区,31.251734,121.411134,教育培训;中学
上海市民办迅行中学分部,虹口区,31.294973,121.506403,教育培训;中学
上海市新江湾高级中学,虹口区,31.307419,121.482397,教育培训;中学
优能中学教育,杨浦区,31.3114,121.496197,教育培训;中学
成功教育实验中学,静安区,31.27351,121.467892,教育培训;中学
上海市长青中学,虹口区,31.259337,121.508916,教育培训;中学
上海市工业设备安装公司职工中等专业学校,虹口区,31.277503,121.484929,教育培训;中学
上海市第二商业局-职工中专,静安区,31.272436,121.464771,教育培训;中学
上海市普陀区江宁学校(中学部),普陀区,31.253593,121.442998,教育培训;中学
虎林路九十九弄105,宝山区,31.335234,121.467209,教育培训;中学
上海外国语大学附属外国语学校东校,虹口区,31.303904,121.471293,教育培训;中学
上海市曹杨第五中学(铜川路),普陀区,31.25585,121.405189,教育培训;中学
风苑中学,静安区,31.290614,121.457822,教育培训;中学
宝山职校-社会培训基地,宝山区,31.341111,121.460523,教育培训;中学
虎林路九十九弄66,宝山区,31.334397,121.46717,教育培训;中学
场中,宝山区,31.307612,121.418645,教育培训;中学
虹口区教育学院附属中学,虹口区,31.279039,121.495916,教育培训;中学
上海市風華初级中学,静安区,31.298005,121.464927,教育培训;中学
上海市印刷技工学校,宝山区,31.349309,121.44591,教育培训;中学
上海文化银湾物业管理有限公司华二小区管理处,虹口区,31.303915,121.475301,教育培训;中学
上海市时代工业学校(东余杭路),虹口区,31.260611,121.50632,教育培训;中学
虎林路九十九弄106,宝山区,31.335398,121.466724,教育培训;中学
上海市海丰农场前锋中学,普陀区,31.253814,121.429651,教育培训;中学
上海市职业教育开放实验中学,宝山区,31.348692,121.450184,教育培训;中学
上海第四职工业余中学,普陀区,31.269339,121.438349,教育培训;中学
上海电视中专阜新校区,杨浦区,31.279412,121.511053,教育培训;中学
江宁学校-全国青少年棋院,普陀区,31.253627,121.442942,教育培训;中学
同洲击剑运动学校华东师范大学宝山实验学校分校,宝山区,31.334886,121.438975,教育培训;中学
上海市宝山区顾村镇成人中等文化技术学校,宝山区,31.353222,121.402836,教育培训;中学
何声奇长笛艺术中心新和中学实验基地,静安区,31.288387,121.439197,教育培训;中学
公用技校五汽分校,宝山区,31.310035,121.403619,教育培训;中学
上海市民办成才中学,静安区,31.270241,121.477606,教育培训;中学
上海世界礼仪文化专修学院,静安区,31.273044,121.450015,教育培训;中学
上海市风华初级中学教育集团,静安区,31.277271,121.46124,教育培训;中学
虎林路九十九弄107,宝山区,31.335398,121.466724,教育培训;中学
上海新世纪职业技术学校闸北分校(共和新路),静安区,31.290617,121.45974,教育培训;中学
江浦路街道社区学校第十八教学点,杨浦区,31.275119,121.517705,教育培训;中学
泗塘五村66,宝山区,31.339515,121.468022,教育培训;中学
泗塘五村57,宝山区,31.339923,121.468484,教育培训;中学
田家炳中学乒羽中心,静安区,31.326192,121.471048,教育培训;中学
沪北中学,静安区,31.264735,121.472781,教育培训;中学
上海市第五中学,虹口区,31.253059,121.491121,教育培训;中学
专业技师,宝山区,31.2865,121.408644,教育培训;中学
上海钢管工业技工学校,宝山区,31.357874,121.505477,教育培训;中学
上海市中小学生读书俱乐部呼玛中学分部,宝山区,31.349628,121.456456,教育培训;中学
TI数理教学技术实验学校,静安区,31.292209,121.438615,教育培训;中学
优能中学教育,虹口区,31.278947,121.485721,教育培训;中学
上海市第五中学(百官街),虹口区,31.25446,121.493174,教育培训;中学
上海市宝山职业技术学校(行知校区),宝山区,31.349723,121.500015,教育培训;中学
上海民办社科星光高级中学,杨浦区,31.317343,121.543521,教育培训;中学
上海金苹果双语学校,浦东新区,31.287466,121.626192,教育培训;中学
高桥中学,浦东新区,31.354173,121.588754,教育培训;中学
上海市市东中学,杨浦区,31.263365,121.523915,教育培训;中学
复旦实验中学,杨浦区,31.310152,121.544222,教育培训;中学
兰生复旦中学(新校区),杨浦区,31.32133,121.532988,教育培训;中学
上海市控江中学,杨浦区,31.284936,121.539359,教育培训;中学
上海理工大学附属初中,杨浦区,31.298191,121.552367,教育培训;中学
同济大学第一附属中学,杨浦区,31.342738,121.525014,教育培训;中学
上海市控江初级中学,杨浦区,31.292089,121.538584,教育培训;中学
上实剑桥外国语中学,杨浦区,31.301428,121.550211,教育培训;中学
高行中学,浦东新区,31.2945,121.615932,教育培训;中学
陆行中学(南校区),浦东新区,31.25911,121.592491,教育培训;中学
上海市新陆职校(东沟校区),浦东新区,31.296439,121.579348,教育培训;中学
沪新中学(莱阳路校区),浦东新区,31.279055,121.586973,教育培训;中学
建平实验中学,浦东新区,31.265978,121.577988,教育培训;中学
上海百联职业技术学校,杨浦区,31.317384,121.539997,教育培训;中学
上海新竹园中学(龙居路),浦东新区,31.260086,121.567121,教育培训;中学
上海市民办存志中学,杨浦区,31.276561,121.520681,教育培训;中学
丰华高级中学,浦东新区,31.276748,121.606767,教育培训;中学
上海市育民中学,浦东新区,31.347603,121.586185,教育培训;中学
建平远翔学校,浦东新区,31.276426,121.60067,教育培训;中学
上海哈罗国际学校,浦东新区,31.323375,121.598418,教育培训;中学
杨浦实验学校,杨浦区,31.330673,121.547634,教育培训;中学
上海市振华外经职业技术学校(龙居路),浦东新区,31.260723,121.569036,教育培训;中学
上海理工大学附属中学,杨浦区,31.291782,121.545068,教育培训;中学
上海市中原中学,杨浦区,31.333566,121.537579,教育培训;中学
上海市辽阳中学(东校区),杨浦区,31.270515,121.540159,教育培训;中学
控江中学附属民办学校,杨浦区,31.270703,121.528245,教育培训;中学
上海市国和中学,杨浦区,31.32746,121.53934,教育培训;中学
上海市少云中学,杨浦区,31.299723,121.52602,教育培训;中学
上海体育学院附属中学,杨浦区,31.289845,121.557765,教育培训;中学
高东中学,浦东新区,31.334838,121.626082,教育培训;中学
上海师范大学附属高桥实验中学,浦东新区,31.342828,121.586899,教育培训;中学
上海市十五中学,杨浦区,31.259719,121.535715,教育培训;中学
上海市同济中学,杨浦区,31.314256,121.528281,教育培训;中学
杨浦职业技校凤城校区,杨浦区,31.283801,121.530384,教育培训;中学
上海市鞍山实验中学,杨浦区,31.311857,121.547081,教育培训;中学
上海市第二十五中学,杨浦区,31.280923,121.551508,教育培训;中学
上海市东沟中学,浦东新区,31.289172,121.588338,教育培训;中学
育鹰中学,杨浦区,31.296095,121.524065,教育培训;中学
上海海事大学附属职业技术学校,浦东新区,31.342687,121.594217,教育培训;中学
上海市民星中学,杨浦区,31.319082,121.544432,教育培训;中学
上海市陸行中学,浦东新区,31.259097,121.592494,教育培训;中学
国立音乐专科学校旧址,杨浦区,31.32887,121.530164,教育培训;中学
上海市包头中学,杨浦区,31.32872,121.544295,教育培训;中学
辛灵中学,杨浦区,31.275762,121.557634,教育培训;中学
上海市杨浦职业技术学校,杨浦区,31.284167,121.530609,教育培训;中学
沪东中华造船集团高级技工学校,浦东新区,31.267973,121.581653,教育培训;中学
惠民中学,杨浦区,31.264739,121.53242,教育培训;中学
上海市新大桥中学,杨浦区,31.275967,121.537715,教育培训;中学
同济中学(临时校区),杨浦区,31.332534,121.538727,教育培训;中学
上海市杨浦初级中学,杨浦区,31.273215,121.520923,教育培训;中学
上海市思源中学,杨浦区,31.323664,121.535395,教育培训;中学
上海建设初级中学,杨浦区,31.269642,121.546549,教育培训;中学
沪东中华造船集团高级技工学校(浦西校区),杨浦区,31.280308,121.569744,教育培训;中学
风帆初级职业学校,杨浦区,31.291716,121.551721,教育培训;中学
上海市浦东模范实验中学,浦东新区,31.296385,121.62425,教育培训;中学
东陆中学,浦东新区,31.27594,121.607874,教育培训;中学
上海市陆行中学南校,浦东新区,31.254854,121.591635,教育培训;中学
东辽阳中学,杨浦区,31.27992,121.557671,教育培训;中学
上海市杨浦区教师进修学院附属中学,杨浦区,31.277718,121.527028,教育培训;中学
上海市同济第二初级中学,杨浦区,31.314976,121.523197,教育培训;中学
杨浦职业技术学校(中原校区),杨浦区,31.32162,121.546802,教育培训;中学
上海民办前进中学,浦东新区,31.273636,121.575452,教育培训;中学
上海市市东中学(高中部),杨浦区,31.263524,121.523928,教育培训;中学
上海市公用技工学校(柳埠路),浦东新区,31.269521,121.588013,教育培训;中学
上船职业技术学校,浦东新区,31.293847,121.639931,教育培训;中学
上海市五十六中学,杨浦区,31.296971,121.542375,教育培训;中学
上海市机电工业学校,杨浦区,31.307035,121.556208,教育培训;中学
上海市辽阳中学西校区(眉州路),杨浦区,31.269025,121.537653,教育培训;中学
中国船舶工业总公司部级重点技工学校,浦东新区,31.274633,121.587017,教育培训;中学
上海市公用技工学校分校,浦东新区,31.297553,121.578149,教育培训;中学
上海市轻工外高桥技校,浦东新区,31.333268,121.575112,教育培训;中学
华东师范大学附属东昌中学浦兴路校区,浦东新区,31.264173,121.608236,教育培训;中学
上海市浦东新区育才金桥学校,浦东新区,31.271852,121.584215,教育培训;中学
上海市惠民中学-临时校舍,杨浦区,31.26342,121.533327,教育培训;中学
江南造船集团技校,虹口区,31.260752,121.520007,教育培训;中学
高行中学国防教育点,浦东新区,31.295104,121.615708,教育培训;中学
风帆初级职业学校分校,杨浦区,31.276017,121.556768,教育培训;中学
上海音乐学院实验学校(中原校区),杨浦区,31.332761,121.53911,教育培训;中学
上海市建设初级中学-东部,杨浦区,31.270095,121.547117,教育培训;中学
上海浦东高南建设工程有限公司高行新高苑E1–4地块配套中学(金靖中学)工程项目部,浦东新区,31.296323,121.624004,教育培训;中学
上海市轻工外高桥技术学校,浦东新区,31.349227,121.587004,教育培训;中学
同济中学南区,杨浦区,31.313409,121.528527,教育培训;中学
Centun21,杨浦区,31.283213,121.527541,教育培训;中学
上海陸行中学南校,浦东新区,31.255575,121.591958,教育培训;中学
上海市英华中学,杨浦区,31.302771,121.552909,教育培训;中学
个性化教育,杨浦区,31.30586,121.520056,教育培训;中学
上海市教育科学研究院附属中学,杨浦区,31.270146,121.528408,教育培训;中学
同济中学北区,杨浦区,31.314267,121.528286,教育培训;中学
灵石璞玉,浦东新区,31.269164,121.616251,教育培训;中学
上海船厂技工学校,浦东新区,31.293695,121.640269,教育培训;中学
上海市浦东复旦附中分校,浦东新区,31.292575,121.679467,教育培训;中学
第二工业大学附属龚路中学,浦东新区,31.271265,121.685279,教育培训;中学
上海市浦东模范中学东校,浦东新区,31.297057,121.676775,教育培训;中学
培德商业学校旧址,浦东新区,31.251349,121.687891,教育培训;中学
育华(集团)学校中等职业技术教育部,浦东新区,31.265838,121.735039,教育培训;中学
上海市横沙中学,崇明区,31.348528,121.8544,教育培训;中学
横沙中学分部,崇明区,31.341389,121.848579,教育培训;中学
第一中学,嘉定区,31.411533,121.259067,教育培训;中学
上海市嘉定区徐行中学,嘉定区,31.418871,121.275986,教育培训;中学
外冈中学,嘉定区,31.369939,121.163975,教育培训;中学
上海市大众工业学校(国家重点),嘉定区,31.39079,121.246297,教育培训;中学
嘉定区启良中学,嘉定区,31.39424,121.259713,教育培训;中学
上海外国语大学嘉定外国语实验高级中学,嘉定区,31.388316,121.265561,教育培训;中学
上海市民办桃李园实验中学,嘉定区,31.40405,121.241272,教育培训;中学
嘉定区中光高级中学,嘉定区,31.39059,121.265928,教育培训;中学
嘉一联合中学,嘉定区,31.409056,121.257765,教育培训;中学
南苑中学,嘉定区,31.368348,121.248907,教育培训;中学
嘉定区练川实验学校,嘉定区,31.384147,121.273349,教育培训;中学
德富路中学,嘉定区,31.36,121.258921,教育培训;中学
大众工业专修学院,嘉定区,31.39054,121.244783,教育培训;中学
上海市民办桃李园实验学校中学部,嘉定区,31.402852,121.240757,教育培训;中学
上海市嘉定区新春学校,嘉定区,31.393501,121.160881,教育培训;中学
嘉定区城实验学校(嘉定梅园路),嘉定区,31.385647,121.250592,教育培训;中学
新疆班高中,嘉定区,31.412163,121.261044,教育培训;中学
罗店中学,宝山区,31.432513,121.354315,教育培训;中学
嘉定区迎园中学,嘉定区,31.399352,121.288005,教育培训;中学
戬浜学校,嘉定区,31.386058,121.299372,教育培训;中学
上海市罗南中学,宝山区,31.393862,121.370448,教育培训;中学
上海市宝山陈伯吹中学,宝山区,31.417147,121.344282,教育培训;中学
美兰湖中学,宝山区,31.411766,121.366276,教育培训;中学
上海市宝山区罗店第二中学,宝山区,31.391926,121.350941,教育培训;中学
上海市罗店成人中等学校(初中部),宝山区,31.427577,121.383267,教育培训;中学
上海市光明中学(罗东路),宝山区,31.427598,121.383128,教育培训;中学
罗店成人中等学校,宝山区,31.420952,121.347541,教育培训;中学
上海市行知中学,宝山区,31.411441,121.504764,教育培训;中学
上海市吴淞中学,宝山区,31.382075,121.503652,教育培训;中学
华东师大附属杨行中学,宝山区,31.382909,121.454651,教育培训;中学
杨泰实验学校,宝山区,31.372895,121.446395,教育培训;中学
上海市宝山中学,宝山区,31.417783,121.495084,教育培训;中学
上海市宝山实验学校,宝山区,31.410746,121.492709,教育培训;中学
上海市淞谊中学,宝山区,31.40736,121.48557,教育培训;中学
上海市月浦实验学校,宝山区,31.413294,121.436407,教育培训;中学
上海市宝山区淞浦中学,宝山区,31.415652,121.429813,教育培训;中学
行知二中,宝山区,31.39975,121.496623,教育培训;中学
上海民办和衷中学,宝山区,31.39555,121.504046,教育培训;中学
上海市震旦中等专业学校,宝山区,31.42301,121.420798,教育培训;中学
上海市宝山区成人中等专业学校,宝山区,31.387182,121.503747,教育培训;中学
上海民办行中中学,宝山区,31.42679,121.436377,教育培训;中学
建峰职业技术学院-附属高中,宝山区,31.412334,121.473663,教育培训;中学
上海市盛桥中学,宝山区,31.46146,121.409376,教育培训;中学
宝山区教师进修学院附属中学,宝山区,31.40521,121.498696,教育培训;中学
上海市月浦中学,宝山区,31.417348,121.442436,教育培训;中学
海滨第二中学,宝山区,31.3899,121.505183,教育培训;中学
宝山实验中学(中学部),宝山区,31.406987,121.495451,教育培训;中学
吴淞中心医院免费接送车永清中学站,宝山区,31.405913,121.498982,教育培训;中学
上海市吴淞初级中学,宝山区,31.385125,121.499532,教育培训;中学
和衷高级中学,宝山区,31.388135,121.50097,教育培训;中学
上海市邦德第一高级中学,宝山区,31.413917,121.475232,教育培训;中学
上海市宝山区第一职工业余中学,宝山区,31.386976,121.503806,教育培训;中学
教学楼二,宝山区,31.412191,121.484993,教育培训;中学
上海市民办外高桥中学,浦东新区,31.363111,121.58262,教育培训;中学
上海浦东竹林学校,浦东新区,31.363675,121.532858,教育培训;中学
上海市长明中学,崇明区,31.390402,121.743208,教育培训;中学
上海市长兴中学,崇明区,31.393656,121.697792,教育培训;中学
上海民办民一中学,崇明区,31.563759,121.639512,教育培训;中学
民本中学,崇明区,31.539554,121.620158,教育培训;中学
竖河职校,崇明区,31.579872,121.591237,教育培训;中学
崇明县三烈中学,崇明区,31.569821,121.579119,教育培训;中学
上海市崇明县正大中学,崇明区,31.5378,121.628779,教育培训;中学
崇明区堡镇中学,崇明区,31.538994,121.627029,教育培训;中学
堡镇业校南校区,崇明区,31.542671,121.621974,教育培训;中学
三烈中学(招呼站),崇明区,31.574409,121.571817,教育培训;中学
崇明县向化中学,崇明区,31.527204,121.729293,教育培训;中学
登瀛中学,崇明区,31.538728,121.686824,教育培训;中学
上海实验学校(东滩校区),崇明区,31.495031,121.81229,教育培训;中学
上海市崇明区裕安中学,崇明区,31.534609,121.854165,教育培训;中学
崇东中学,崇明区,31.503894,121.810371,教育培训;中学
大公中学,崇明区,31.535089,121.768184,教育培训;中学
上海市崇明县裕安中学,崇明区,31.532625,121.844125,教育培训;中学
崇明县前哨学校,崇明区,31.529573,121.884215,教育培训;中学
上海市东旺学校,崇明区,31.530446,121.88325,教育培训;中学
宏达中学,崇明区,31.681397,121.382578,教育培训;中学
崇明区实验中学(西园校区),崇明区,31.633089,121.396978,教育培训;中学
崇明县实验中学(宏达校区),崇明区,31.682189,121.382923,教育培训;中学
伟业学校,崇明区,31.678497,121.387305,教育培训;中学
崇明中学,崇明区,31.646436,121.422926,教育培训;中学
上海市扬子中学,崇明区,31.633075,121.409079,教育培训;中学
城桥中学,崇明区,31.636739,121.402542,教育培训;中学
崇明县东门中学(江山校区),崇明区,31.632026,121.417684,教育培训;中学
大同中学,崇明区,31.633331,121.495372,教育培训;中学
育林中学,崇明区,31.641156,121.41499,教育培训;中学
崇明县建设中学,崇明区,31.669669,121.462496,教育培训;中学
崇明区东门中学城东校区,崇明区,31.62042,121.466785,教育培训;中学
崇明县培成学校,崇明区,31.66644,121.446637,教育培训;中学
上海市中华中学,崇明区,31.63552,121.400034,教育培训;中学
崇明县城桥中学(南校区),崇明区,31.621826,121.412134,教育培训;中学
崇明县城东职业技术学校,崇明区,31.636752,121.443224,教育培训;中学
上海市崇明县新业职业技术学校,崇明区,31.681427,121.420371,教育培训;中学
崇明中学围墙,崇明区,31.632113,121.410472,教育培训;中学
崇明县新光中学,崇明区,31.621384,121.608245,教育培训;中学
大新中学,崇明区,31.589152,121.537601,教育培训;中学
长江中学,崇明区,31.672205,121.544499,教育培训;中学
新民中学,崇明区,31.626016,121.538381,教育培训;中学
崇明县新河中学,崇明区,31.584569,121.525977,教育培训;中学
兴教村镇西106,崇明区,31.588491,121.535888,教育培训;中学
崇明县合兴中学,崇明区,31.590857,121.721813,教育培训;中学
崇明县马桥中学,崇明区,31.595318,121.657902,教育培训;中学
上海市竖河职校向化校区,崇明区,31.58353,121.776837,教育培训;中学
崇明县崇西中学,崇明区,31.722226,121.353054,教育培训;中学
三星中学,崇明区,31.765628,121.294831,教育培训;中学
崇明县三乐学校,崇明区,31.744871,121.370797,教育培训;中学
海桥中学,崇明区,31.789285,121.32186,教育培训;中学
上海长江农场职工子弟中学,崇明区,31.797198,121.378425,教育培训;中学
崇明县港西中学,崇明区,31.698653,121.422706,教育培训;中学
上海市长征学校,崇明区,31.771072,121.421709,教育培训;中学
